header: 
  seq: 7688
  stamp: 
    secs: 1526212306
    nsecs:  14524969
  frame_id: ''
point: 
  x: -251.969039917
  y: -541.918518066
  z: 167.076049805
---
header: 
  seq: 7689
  stamp: 
    secs: 1526212306
    nsecs:  81249399
  frame_id: ''
point: 
  x: -307.3309021
  y: -540.331787109
  z: 164.322631836
---
header: 
  seq: 7690
  stamp: 
    secs: 1526212306
    nsecs: 147970109
  frame_id: ''
point: 
  x: -347.075714111
  y: -547.592712402
  z: 151.250671387
---
header: 
  seq: 7691
  stamp: 
    secs: 1526212306
    nsecs: 214541804
  frame_id: ''
point: 
  x: -374.982086182
  y: -546.86114502
  z: 149.323547363
---
header: 
  seq: 7692
  stamp: 
    secs: 1526212306
    nsecs: 281264591
  frame_id: ''
point: 
  x: -376.960784912
  y: -548.228027344
  z: 147.70866394
---
header: 
  seq: 7693
  stamp: 
    secs: 1526212306
    nsecs: 347878567
  frame_id: ''
point: 
  x: -347.161346436
  y: -555.065124512
  z: 138.57850647
---
header: 
  seq: 7694
  stamp: 
    secs: 1526212306
    nsecs: 414601609
  frame_id: ''
point: 
  x: -309.028869629
  y: -548.545654297
  z: 146.654586792
---
header: 
  seq: 7695
  stamp: 
    secs: 1526212306
    nsecs: 480373720
  frame_id: ''
point: 
  x: -268.329498291
  y: -530.274902344
  z: 165.39163208
---
header: 
  seq: 7696
  stamp: 
    secs: 1526212306
    nsecs: 547882629
  frame_id: ''
point: 
  x: -220.437347412
  y: -524.31451416
  z: 173.084197998
---
header: 
  seq: 7697
  stamp: 
    secs: 1526212306
    nsecs: 614539552
  frame_id: ''
point: 
  x: -156.266983032
  y: -544.36151123
  z: 151.010162354
---
header: 
  seq: 7698
  stamp: 
    secs: 1526212306
    nsecs: 681003056
  frame_id: ''
point: 
  x: -113.679870605
  y: -555.296325684
  z: 141.565948486
---
header: 
  seq: 7699
  stamp: 
    secs: 1526212306
    nsecs: 747929576
  frame_id: ''
point: 
  x: -99.8085403442
  y: -554.626525879
  z: 146.498504639
---
header: 
  seq: 7700
  stamp: 
    secs: 1526212306
    nsecs: 814504059
  frame_id: ''
point: 
  x: -98.2705078125
  y: -558.872680664
  z: 143.132293701
---
header: 
  seq: 7701
  stamp: 
    secs: 1526212306
    nsecs: 881005455
  frame_id: ''
point: 
  x: -116.963188171
  y: -560.340698242
  z: 143.027770996
---
header: 
  seq: 7702
  stamp: 
    secs: 1526212306
    nsecs: 944996719
  frame_id: ''
point: 
  x: -164.789245605
  y: -551.453979492
  z: 157.602233887
---
header: 
  seq: 7703
  stamp: 
    secs: 1526212307
    nsecs:  11893175
  frame_id: ''
point: 
  x: -213.230361938
  y: -555.734436035
  z: 153.901397705
---
header: 
  seq: 7704
  stamp: 
    secs: 1526212307
    nsecs:  79955862
  frame_id: ''
point: 
  x: -259.985931396
  y: -571.440307617
  z: 138.083465576
---
header: 
  seq: 7705
  stamp: 
    secs: 1526212307
    nsecs: 147945914
  frame_id: ''
point: 
  x: -329.696929932
  y: -547.108276367
  z: 164.128234863
---
header: 
  seq: 7706
  stamp: 
    secs: 1526212307
    nsecs: 214557078
  frame_id: ''
point: 
  x: -363.125732422
  y: -556.851074219
  z: 149.816574097
---
header: 
  seq: 7707
  stamp: 
    secs: 1526212307
    nsecs: 280695893
  frame_id: ''
point: 
  x: -391.054718018
  y: -555.05078125
  z: 150.657806396
---
header: 
  seq: 7708
  stamp: 
    secs: 1526212307
    nsecs: 347600605
  frame_id: ''
point: 
  x: -399.677185059
  y: -555.342590332
  z: 149.89151001
---
header: 
  seq: 7709
  stamp: 
    secs: 1526212307
    nsecs: 414355196
  frame_id: ''
point: 
  x: -386.421508789
  y: -558.136169434
  z: 145.491836548
---
header: 
  seq: 7710
  stamp: 
    secs: 1526212307
    nsecs: 481307189
  frame_id: ''
point: 
  x: -367.228912354
  y: -541.083068848
  z: 167.210861206
---
header: 
  seq: 7711
  stamp: 
    secs: 1526212307
    nsecs: 547643429
  frame_id: ''
point: 
  x: -313.555725098
  y: -545.803649902
  z: 161.966415405
---
header: 
  seq: 7712
  stamp: 
    secs: 1526212307
    nsecs: 614586822
  frame_id: ''
point: 
  x: -246.052459717
  y: -556.188598633
  z: 151.564849854
---
header: 
  seq: 7713
  stamp: 
    secs: 1526212307
    nsecs: 681380978
  frame_id: ''
point: 
  x: -192.995376587
  y: -550.02935791
  z: 157.891143799
---
header: 
  seq: 7714
  stamp: 
    secs: 1526212307
    nsecs: 747866563
  frame_id: ''
point: 
  x: -138.690368652
  y: -560.37286377
  z: 148.974578857
---
header: 
  seq: 7715
  stamp: 
    secs: 1526212307
    nsecs: 814549377
  frame_id: ''
point: 
  x: -106.810028076
  y: -564.546569824
  z: 147.768264771
---
header: 
  seq: 7716
  stamp: 
    secs: 1526212307
    nsecs: 881287353
  frame_id: ''
point: 
  x: -96.1647415161
  y: -565.879394531
  z: 150.389175415
---
header: 
  seq: 7717
  stamp: 
    secs: 1526212307
    nsecs: 947642309
  frame_id: ''
point: 
  x: -101.895729065
  y: -569.61328125
  z: 148.013412476
---
header: 
  seq: 7718
  stamp: 
    secs: 1526212308
    nsecs:  14508690
  frame_id: ''
point: 
  x: -134.822280884
  y: -564.809631348
  z: 155.456756592
---
header: 
  seq: 7719
  stamp: 
    secs: 1526212308
    nsecs:  81370817
  frame_id: ''
point: 
  x: -177.926620483
  y: -566.582702637

