header: 
  seq: 1648
  stamp: 
    secs: 1526152755
    nsecs: 105566660
  frame_id: ''
point: 
  x: -110.397537231
  y: -638.116455078
  z: 168.513259888
---
header: 
  seq: 1649
  stamp: 
    secs: 1526152755
    nsecs: 172546959
  frame_id: ''
point: 
  x: -110.023735046
  y: -638.65802002
  z: 168.003768921
---
header: 
  seq: 1650
  stamp: 
    secs: 1526152755
    nsecs: 239026668
  frame_id: ''
point: 
  x: -109.689811707
  y: -639.119384766
  z: 167.573898315
---
header: 
  seq: 1651
  stamp: 
    secs: 1526152755
    nsecs: 305905952
  frame_id: ''
point: 
  x: -109.39414978
  y: -639.508056641
  z: 167.215591431
---
header: 
  seq: 1652
  stamp: 
    secs: 1526152755
    nsecs: 372548450
  frame_id: ''
point: 
  x: -109.083435059
  y: -639.831665039
  z: 166.977783203
---
header: 
  seq: 1653
  stamp: 
    secs: 1526152755
    nsecs: 438901889
  frame_id: ''
point: 
  x: -108.815093994
  y: -640.096435547
  z: 166.787719727
---
header: 
  seq: 1654
  stamp: 
    secs: 1526152755
    nsecs: 506015147
  frame_id: ''
point: 
  x: -108.637405396
  y: -640.308349609
  z: 166.582977295
---
header: 
  seq: 1655
  stamp: 
    secs: 1526152755
    nsecs: 572567792
  frame_id: ''
point: 
  x: -108.43624115
  y: -640.47479248
  z: 166.480270386
---
header: 
  seq: 1656
  stamp: 
    secs: 1526152755
    nsecs: 639152077
  frame_id: ''
point: 
  x: -108.268814087
  y: -640.600891113
  z: 166.408081055
---
header: 
  seq: 1657
  stamp: 
    secs: 1526152755
    nsecs: 705922122
  frame_id: ''
point: 
  x: -108.13193512
  y: -640.692077637
  z: 166.361862183
---
header: 
  seq: 1658
  stamp: 
    secs: 1526152755
    nsecs: 772536286
  frame_id: ''
point: 
  x: -109.617202759
  y: -638.602783203
  z: 168.358230591
---
header: 
  seq: 1659
  stamp: 
    secs: 1526152755
    nsecs: 839159711
  frame_id: ''
point: 
  x: -109.280014038
  y: -638.97857666
  z: 168.03237915
---
header: 
  seq: 1660
  stamp: 
    secs: 1526152755
    nsecs: 905896317
  frame_id: ''
point: 
  x: -108.991256714
  y: -639.296813965
  z: 167.755310059
---
header: 
  seq: 1661
  stamp: 
    secs: 1526152755
    nsecs: 972502840
  frame_id: ''
point: 
  x: -108.797981262
  y: -639.562927246
  z: 167.465362549
---
header: 
  seq: 1662
  stamp: 
    secs: 1526152756
    nsecs:  39154228
  frame_id: ''
point: 
  x: -108.585014343
  y: -639.783813477
  z: 167.279891968
---
header: 
  seq: 1663
  stamp: 
    secs: 1526152756
    nsecs: 105050421
  frame_id: ''
point: 
  x: -108.408691406
  y: -639.963989258
  z: 167.127960205
---
header: 
  seq: 1664
  stamp: 
    secs: 1526152756
    nsecs: 172346091
  frame_id: ''
point: 
  x: -108.316513062
  y: -640.107849121
  z: 166.948898315
---
header: 
  seq: 1665
  stamp: 
    secs: 1526152756
    nsecs: 239238221
  frame_id: ''
point: 
  x: -108.24520874
  y: -640.220581055
  z: 166.804489136
---
header: 
  seq: 1666
  stamp: 
    secs: 1526152756
    nsecs: 305939711
  frame_id: ''
point: 
  x: -108.19216156
  y: -640.306335449
  z: 166.690307617
---
header: 
  seq: 1667
  stamp: 
    secs: 1526152756
    nsecs: 372524698
  frame_id: ''
point: 
  x: -108.154914856
  y: -640.369018555
  z: 166.602325439
---
header: 
  seq: 1668
  stamp: 
    secs: 1526152756
    nsecs: 438911045
  frame_id: ''
point: 
  x: -108.131187439
  y: -640.41204834
  z: 166.536819458
---
header: 
  seq: 1669
  stamp: 
    secs: 1526152756
    nsecs: 505913088
  frame_id: ''
point: 
  x: -109.01713562
  y: -639.474731445
  z: 167.542648315
---
header: 
  seq: 1670
  stamp: 
    secs: 1526152756
    nsecs: 572523195
  frame_id: ''
point: 
  x: -108.8723526
  y: -639.639953613
  z: 167.345947266
---
header: 
  seq: 1671
  stamp: 
    secs: 1526152756
    nsecs: 639262936
  frame_id: ''
point: 
  x: -108.750534058
  y: -639.777770996
  z: 167.180343628
---
header: 
  seq: 1672
  stamp: 
    secs: 1526152756
    nsecs: 705933046
  frame_id: ''
point: 
  x: -108.649215698
  y: -639.891418457
  z: 167.042327881
---
header: 
  seq: 1673
  stamp: 
    secs: 1526152756
    nsecs: 772512592
  frame_id: ''
point: 
  x: -108.566078186
  y: -639.983886719
  z: 166.928649902
---
header: 
  seq: 1674
  stamp: 
    secs: 1526152756
    nsecs: 839362028
  frame_id: ''
point: 
  x: -108.447547913
  y: -640.058532715
  z: 166.892868042
---
header: 
  seq: 1675
  stamp: 
    secs: 1526152756
    nsecs: 905910804
  frame_id: ''
point: 
  x: -108.351165771
  y: -640.117126465
  z: 166.866729736
---
header: 
  seq: 1676
  stamp: 
    secs: 1526152756
    nsecs: 972543058
  frame_id: ''
point: 
  x: -108.325630188
  y: -640.161376953
  z: 166.792053223
---
header: 
  seq: 1677
  stamp: 
    secs: 1526152757
    nsecs:  38852591
  frame_id: ''
point: 
  x: -108.308883667
  y: -640.193969727
  z: 166.733001709
---
header: 
  seq: 1678
  stamp: 
    secs: 1526152757
    nsecs: 105731308
  frame_id: ''
point: 
  x: -109.197738647
  y: -639.252990723
  z: 167.739624023
---
header: 
  seq: 1679
  stamp: 
    secs: 1526152757
    nsecs: 172571558
  frame_id: ''
point: 
  x: -109.052375793
  y: -639.42010498
  z: 167.539093018
---
header: 
  seq: 1680
  stamp: 
    secs: 1526152757
    nsecs: 239211596
  frame_id: ''
point: 
  x: -108.927078247
  y: -639.56427002
  z: 167.365982056
---
header: 
  seq: 1681
  stamp: 
    secs: 1526152757
    nsecs: 305934057
  frame_id: ''
point: 
  x: -108.819900513
  y: -639.687744141
  z: 167.217636108
---
header: 
  seq: 1682
  stamp: 
    secs: 1526152757
    nsecs: 372513887
  frame_id: ''
point: 
  x: -108.729003906
  y: -639.792785645
  z: 167.091522217
---
header: 
  seq: 1683
  stamp: 
    secs: 1526152757
    nsecs: 438927287
  frame_id: ''
point: 
  x: -107.746551514
  y: -640.853515625
  z: 165.923843384
---
header: 
  seq: 1684
  stamp: 
    secs: 1526152757
    nsecs: 505959656
  frame_id: ''
point: 
  x: -108.962081909
  y: -639.911132812
  z: 166.965408325
---
header: 
  seq: 1685
  stamp: 
    secs: 1526152757
    nsecs: 572517384
  frame_id: ''
point: 
  x: -109.216583252
  y: -640.193908691
  z: 166.804092407
---
header: 
  seq: 1686
  stamp: 
    secs: 1526152757
    nsecs: 638918285
  frame_id: ''
point: 
  x: -109.309394836
  y: -640.310241699
  z: 166.664962769
---
header: 
  seq: 1687
  stamp: 
    secs: 1526152757
    nsecs: 705876588
  frame_id: ''
point: 
  x: -109.383926392
  y: -640.405029297
  z: 166.550247192
---
header: 
  seq: 1688
  stamp: 
    secs: 1526152757
    nsecs: 772501391
  frame_id: ''
point: 
  x: -109.442428589
  y: -640.480957031
  z: 166.457000732
---
header: 
  seq: 1689
  stamp: 
    secs: 1526152757
    nsecs: 839204385
  frame_id: ''
point: 
  x: -109.486961365
  y: -640.540527344
  z: 166.382522583
---
header: 
  seq: 1690
  stamp: 
    secs: 1526152757
    nsecs: 905928749
  frame_id: ''
point: 
  x: -109.519447327
  y: -640.5859375
  z: 166.324325562
---
header: 
  seq: 1691
  stamp: 
    secs: 1526152757
    nsecs: 972521406
  frame_id: ''
point: 
  x: -111.420974731
  y: -638.56854248
  z: 168.156234741
---
header: 
  seq: 1692
  stamp: 
    secs: 1526152758
    nsecs:  39175766
  frame_id: ''
point: 
  x: -111.426841736
  y: -639.017578125
  z: 167.680023193
---
header: 
  seq: 1693
  stamp: 
    secs: 1526152758
    nsecs: 105918153
  frame_id: ''
point: 
  x: -113.356140137
  y: -637.476074219
  z: 169.206863403
---
header: 
  seq: 1694
  stamp: 
    secs: 1526152758
    nsecs: 172654710
  frame_id: ''
point: 
  x: -114.13243866
  y: -637.132873535
  z: 169.394226074
---
header: 
  seq: 1695
  stamp: 
    secs: 1526152758
    nsecs: 239183858
  frame_id: ''
point: 
  x: -114.265907288
  y: -638.051330566
  z: 168.336380005
---
header: 
  seq: 1696
  stamp: 
    secs: 1526152758
    nsecs: 305888263
  frame_id: ''
point: 
  x: -115.690040588
  y: -637.962768555
  z: 168.184005737
---
header: 
  seq: 1697
  stamp: 
    secs: 1526152758
    nsecs: 372545975
  frame_id: ''
point: 
  x: -118.291389465
  y: -637.02520752
  z: 168.683883667
---
header: 
  seq: 1698
  stamp: 
    secs: 1526152758
    nsecs: 438918670
  frame_id: ''
point: 
  x: -118.545501709
  y: -639.587158203
  z: 165.701812744
---
header: 
  seq: 1699
  stamp: 
    secs: 1526152758
    nsecs: 505925528
  frame_id: ''
point: 
  x: -122.084648132
  y: -639.050598145
  z: 165.905273438
---
header: 
  seq: 1700
  stamp: 
    secs: 1526152758
    nsecs: 572544543
  frame_id: ''
point: 
  x: -124.238647461
  y: -640.943847656
  z: 163.549087524
---
header: 
  seq: 1701
  stamp: 
    secs: 1526152758
    nsecs: 639143535
  frame_id: ''
point: 
  x: -131.043197632
  y: -637.829467773
  z: 166.191894531
---
header: 
  seq: 1702
  stamp: 
    secs: 1526152758
    nsecs: 705949082
  frame_id: ''
point: 
  x: -137.761383057
  y: -635.720703125
  z: 168.032043457
---
header: 
  seq: 1703
  stamp: 
    secs: 1526152758
    nsecs: 772555608
  frame_id: ''
point: 
  x: -143.580566406
  y: -635.416381836
  z: 168.095413208
---
header: 
  seq: 1704
  stamp: 
    secs: 1526152758
    nsecs: 839202752
  frame_id: ''
point: 
  x: -151.0652771
  y: -633.71697998
  z: 169.614700317
---
header: 
  seq: 1705
  stamp: 
    secs: 1526152758
    nsecs: 905916128
  frame_id: ''
point: 
  x: -158.449157715
  y: -632.940979004
  z: 170.382980347
---
header: 
  seq: 1706
  stamp: 
    secs: 1526152758
    nsecs: 972519274
  frame_id: ''
point: 
  x: -167.85836792
  y: -630.073364258
  z: 173.281005859
---
header: 
  seq: 1707
  stamp: 
    secs: 1526152759
    nsecs:  38882109
  frame_id: ''
point: 
  x: -175.411956787
  y: -629.243408203
  z: 173.853256226
---
header: 
  seq: 1708
  stamp: 
    secs: 1526152759
    nsecs: 105635118
  frame_id: ''
point: 
  x: -181.588882446
  y: -628.196472168
  z: 174.644180298
---
header: 
  seq: 1709
  stamp: 
    secs: 1526152759
    nsecs: 172627892
  frame_id: ''
point: 
  x: -188.027420044
  y: -627.102844238
  z: 175.474349976
---
header: 
  seq: 1710
  stamp: 
    secs: 1526152759
    nsecs: 239261313
  frame_id: ''
point: 
  x: -194.72756958
  y: -625.962524414
  z: 176.34375
---
header: 
  seq: 1711
  stamp: 
    secs: 1526152759
    nsecs: 305915063
  frame_id: ''
point: 
  x: -201.689331055
  y: -624.775512695
  z: 177.25239563
---
header: 
  seq: 1712
  stamp: 
    secs: 1526152759
    nsecs: 372522499
  frame_id: ''
point: 
  x: -208.912689209
  y: -623.541809082
  z: 178.200286865
---
header: 
  seq: 1713
  stamp: 
    secs: 1526152759
    nsecs: 505946072
  frame_id: ''
point: 
  x: -216.397659302
  y: -622.261413574
  z: 179.187408447
---
header: 
  seq: 1714
  stamp: 
    secs: 1526152759
    nsecs: 638902875
  frame_id: ''
point: 
  x: -224.144241333
  y: -620.934326172
  z: 180.213775635
---
header: 
  seq: 1715
  stamp: 
    secs: 1526152759
    nsecs: 772494505
  frame_id: ''
point: 
  x: -232.152435303
  y: -619.560546875
  z: 181.279388428
---
header: 
  seq: 1716
  stamp: 
    secs: 1526152759
    nsecs: 905903261
  frame_id: ''
point: 
  x: -240.422225952
  y: -618.140075684
  z: 182.384246826
---
header: 
  seq: 1717
  stamp: 
    secs: 1526152759
    nsecs: 972545061
  frame_id: ''
point: 
  x: -248.95362854
  y: -616.672973633
  z: 183.528335571
---
header: 
  seq: 1718
  stamp: 
    secs: 1526152760
    nsecs: 105952588
  frame_id: ''
point: 
  x: -257.746643066
  y: -615.159179688
  z: 184.711669922
---
header: 
  seq: 1719
  stamp: 
    secs: 1526152760
    nsecs: 239296696
  frame_id: ''
point: 
  x: -266.801269531
  y: -613.598693848
  z: 185.934249878
---
header: 
  seq: 1720
  stamp: 
    secs: 1526152760
    nsecs: 305991624
  frame_id: ''
point: 
  x: -276.117492676
  y: -611.991516113
  z: 187.196060181
---
header: 
  seq: 1721
  stamp: 
    secs: 1526152760
    nsecs: 438928161
  frame_id: ''
point: 
  x: -285.695343018
  y: -610.337646484
  z: 188.497116089
---
header: 
  seq: 1722
  stamp: 
    secs: 1526152760
    nsecs: 572513670
  frame_id: ''
point: 
  x: -295.534790039
  y: -608.637084961
  z: 189.837417603
---
header: 
  seq: 1723
  stamp: 
    secs: 1526152760
    nsecs: 638859991
  frame_id: ''
point: 
  x: -305.63583374
  y: -606.889831543
  z: 191.216964722
---
header: 
  seq: 1724
  stamp: 
    secs: 1526152760
    nsecs: 772531738
  frame_id: ''
point: 
  x: -315.998504639
  y: -605.09588623
  z: 192.635742188
---
header: 
  seq: 1725
  stamp: 
    secs: 1526152760
    nsecs: 839186735
  frame_id: ''
point: 
  x: -326.622772217
  y: -603.255249023
  z: 194.093765259
---
header: 
  seq: 1726
  stamp: 
    secs: 1526152760
    nsecs: 905893295
  frame_id: ''
point: 
  x: -337.508666992
  y: -601.367919922
  z: 195.591033936
---
header: 
  seq: 1727
  stamp: 
    secs: 1526152760
    nsecs: 972503194
  frame_id: ''
point: 
  x: -390.168884277
  y: -617.291015625
  z: 168.700866699
---
header: 
  seq: 1728
  stamp: 
    secs: 1526152761
    nsecs:  38981418
  frame_id: ''
point: 
  x: -398.438873291
  y: -623.176025391
  z: 161.547225952
---
header: 
  seq: 1729
  stamp: 
    secs: 1526152761
    nsecs: 105922807
  frame_id: ''
point: 
  x: -408.190612793
  y: -623.762634277
  z: 159.608154297
---
header: 
  seq: 1730
  stamp: 
    secs: 1526152761
    nsecs: 172497380
  frame_id: ''
point: 
  x: -417.621124268
  y: -623.427856445
  z: 158.759246826
---
header: 
  seq: 1731
  stamp: 
    secs: 1526152761
    nsecs: 239253907
  frame_id: ''
point: 
  x: -424.515380859
  y: -626.036071777
  z: 154.848480225
---
header: 
  seq: 1732
  stamp: 
    secs: 1526152761
    nsecs: 305908315
  frame_id: ''
point: 
  x: -431.820770264
  y: -626.841003418
  z: 153.056884766
---
header: 
  seq: 1733
  stamp: 
    secs: 1526152761
    nsecs: 372557563
  frame_id: ''
point: 
  x: -438.068237305
  y: -628.437988281
  z: 150.579498291
---
header: 
  seq: 1734
  stamp: 
    secs: 1526152761
    nsecs: 438937461
  frame_id: ''
point: 
  x: -444.877807617
  y: -627.159912109
  z: 151.210586548
---
header: 
  seq: 1735
  stamp: 
    secs: 1526152761
    nsecs: 505995102
  frame_id: ''
point: 
  x: -451.084747314
  y: -625.626953125
  z: 152.332092285
---
header: 
  seq: 1736
  stamp: 
    secs: 1526152761
    nsecs: 572581463
  frame_id: ''
point: 
  x: -456.553192139
  y: -623.700927734
  z: 153.805709839
---
header: 
  seq: 1737
  stamp: 
    secs: 1526152761
    nsecs: 638831138
  frame_id: ''
point: 
  x: -461.997589111
  y: -620.003234863
  z: 157.002380371
---
header: 
  seq: 1738
  stamp: 
    secs: 1526152761
    nsecs: 706004519
  frame_id: ''
point: 
  x: -465.645782471
  y: -619.365844727
  z: 157.115692139
---
header: 
  seq: 1739
  stamp: 
    secs: 1526152761
    nsecs: 772552477
  frame_id: ''
point: 
  x: -469.009033203
  y: -618.747070312
  z: 157.326126099
---
header: 
  seq: 1740
  stamp: 
    secs: 1526152761
    nsecs: 839118368
  frame_id: ''
point: 
  x: -471.062683105
  y: -620.331848145
  z: 155.116027832
---
header: 
  seq: 1741
  stamp: 
    secs: 1526152761
    nsecs: 905903026
  frame_id: ''
point: 
  x: -473.21572876
  y: -622.059875488
  z: 152.568847656
---
header: 
  seq: 1742
  stamp: 
    secs: 1526152761
    nsecs: 972530686
  frame_id: ''
point: 
  x: -476.056091309
  y: -623.238220215
  z: 150.991287231
---
header: 
  seq: 1743
  stamp: 
    secs: 1526152762
    nsecs:  39194912
  frame_id: ''
point: 
  x: -480.320037842
  y: -621.051086426
  z: 152.836883545
---
header: 
  seq: 1744
  stamp: 
    secs: 1526152762
    nsecs: 105885399
  frame_id: ''
point: 
  x: -483.203399658
  y: -622.130737305
  z: 151.08026123
---
header: 
  seq: 1745
  stamp: 
    secs: 1526152762
    nsecs: 172552540
  frame_id: ''
point: 
  x: -487.612792969
  y: -620.039489746
  z: 152.782241821
---
header: 
  seq: 1746
  stamp: 
    secs: 1526152762
    nsecs: 239225191
  frame_id: ''
point: 
  x: -490.038635254
  y: -622.486022949
  z: 149.602050781
---
header: 
  seq: 1747
  stamp: 
    secs: 1526152762
    nsecs: 305997436
  frame_id: ''
point: 
  x: -492.315734863
  y: -625.286071777
  z: 146.166778564
---
header: 
  seq: 1748
  stamp: 
    secs: 1526152762
    nsecs: 372563469
  frame_id: ''
point: 
  x: -495.841461182
  y: -624.175964355
  z: 146.732879639
---
header: 
  seq: 1749
  stamp: 
    secs: 1526152762
    nsecs: 438840819
  frame_id: ''
point: 
  x: -499.543914795
  y: -621.402160645
  z: 149.071350098
---
header: 
  seq: 1750
  stamp: 
    secs: 1526152762
    nsecs: 505922186
  frame_id: ''
point: 
  x: -501.679351807
  y: -621.439758301
  z: 148.549133301
---
header: 
  seq: 1751
  stamp: 
    secs: 1526152762
    nsecs: 572471611
  frame_id: ''
point: 
  x: -502.846832275
  y: -622.165466309
  z: 147.193786621
---
header: 
  seq: 1752
  stamp: 
    secs: 1526152762
    nsecs: 638892661
  frame_id: ''
point: 
  x: -503.353729248
  y: -623.785766602
  z: 145.06350708
---
header: 
  seq: 1753
  stamp: 
    secs: 1526152762
    nsecs: 705934234
  frame_id: ''
point: 
  x: -503.755310059
  y: -624.234191895
  z: 144.154037476
---
header: 
  seq: 1754
  stamp: 
    secs: 1526152762
    nsecs: 772528563
  frame_id: ''
point: 
  x: -504.801330566
  y: -622.762390137
  z: 145.649414062
---
header: 
  seq: 1755
  stamp: 
    secs: 1526152762
    nsecs: 839288862
  frame_id: ''
point: 
  x: -505.349975586
  y: -621.512084961
  z: 146.979217529
---
header: 
  seq: 1756
  stamp: 
    secs: 1526152762
    nsecs: 905936831
  frame_id: ''
point: 
  x: -505.842102051
  y: -619.546875
  z: 149.021102905
---
header: 
  seq: 1757
  stamp: 
    secs: 1526152762
    nsecs: 972549373
  frame_id: ''
point: 
  x: -504.577178955
  y: -620.654418945
  z: 147.721832275
---
header: 
  seq: 1758
  stamp: 
    secs: 1526152763
    nsecs:  38935389
  frame_id: ''
point: 
  x: -504.813568115
  y: -617.97064209
  z: 150.605453491
---
header: 
  seq: 1759
  stamp: 
    secs: 1526152763
    nsecs: 105912729
  frame_id: ''
point: 
  x: -502.7706604
  y: -620.205078125
  z: 148.246505737
---
header: 
  seq: 1760
  stamp: 
    secs: 1526152763
    nsecs: 172547171
  frame_id: ''
point: 
  x: -501.542175293
  y: -621.153198242
  z: 147.588104248
---
header: 
  seq: 1761
  stamp: 
    secs: 1526152763
    nsecs: 239213565
  frame_id: ''
point: 
  x: -499.128479004
  y: -624.449401855
  z: 144.313461304
---
header: 
  seq: 1762
  stamp: 
    secs: 1526152763
    nsecs: 305958415
  frame_id: ''
point: 
  x: -497.773254395
  y: -624.810241699
  z: 143.994995117
---
header: 
  seq: 1763
  stamp: 
    secs: 1526152763
    nsecs: 372604601
  frame_id: ''
point: 
  x: -497.395599365
  y: -622.793518066
  z: 145.984375
---
header: 
  seq: 1764
  stamp: 
    secs: 1526152763
    nsecs: 438894664
  frame_id: ''
point: 
  x: -497.742614746
  y: -619.690185547
  z: 149.428939819
---
header: 
  seq: 1765
  stamp: 
    secs: 1526152763
    nsecs: 506011804
  frame_id: ''
point: 
  x: -495.522857666
  y: -622.393310547
  z: 146.740936279
---
header: 
  seq: 1766
  stamp: 
    secs: 1526152763
    nsecs: 572541652
  frame_id: ''
point: 
  x: -493.653900146
  y: -624.686096191
  z: 144.471984863
---
header: 
  seq: 1767
  stamp: 
    secs: 1526152763
    nsecs: 638840324
  frame_id: ''
point: 
  x: -493.619140625
  y: -622.842529297
  z: 146.644195557
---
header: 
  seq: 1768
  stamp: 
    secs: 1526152763
    nsecs: 706019196
  frame_id: ''
point: 
  x: -493.413299561
  y: -620.983947754
  z: 148.495620728
---
header: 
  seq: 1769
  stamp: 
    secs: 1526152763
    nsecs: 772549828
  frame_id: ''
point: 
  x: -494.255096436
  y: -617.41998291
  z: 152.357513428
---
header: 
  seq: 1770
  stamp: 
    secs: 1526152763
    nsecs: 839161602
  frame_id: ''
point: 
  x: -493.446624756
  y: -618.868103027
  z: 151.327407837
---
header: 
  seq: 1771
  stamp: 
    secs: 1526152763
    nsecs: 905921746
  frame_id: ''
point: 
  x: -493.942840576
  y: -617.027832031
  z: 153.39302063
---
header: 
  seq: 1772
  stamp: 
    secs: 1526152763
    nsecs: 972562269
  frame_id: ''
point: 
  x: -494.044494629
  y: -616.433959961
  z: 154.262588501
---
header: 
  seq: 1773
  stamp: 
    secs: 1526152764
    nsecs:  39198766
  frame_id: ''
point: 
  x: -494.203277588
  y: -615.97064209
  z: 154.948043823
---
header: 
  seq: 1774
  stamp: 
    secs: 1526152764
    nsecs: 105878202
  frame_id: ''
point: 
  x: -493.326904297
  y: -617.455749512
  z: 153.289123535
---
header: 
  seq: 1775
  stamp: 
    secs: 1526152764
    nsecs: 172669563
  frame_id: ''
point: 
  x: -494.083007812
  y: -616.000366211
  z: 154.886550903
---
header: 
  seq: 1776
  stamp: 
    secs: 1526152764
    nsecs: 239269284
  frame_id: ''
point: 
  x: -493.826629639
  y: -616.974243164
  z: 153.912094116
---
header: 
  seq: 1777
  stamp: 
    secs: 1526152764
    nsecs: 305985877
  frame_id: ''
point: 
  x: -492.484924316
  y: -620.172363281
  z: 150.433105469
---
header: 
  seq: 1778
  stamp: 
    secs: 1526152764
    nsecs: 372543690
  frame_id: ''
point: 
  x: -490.433837891
  y: -624.757141113
  z: 145.426742554
---
header: 
  seq: 1779
  stamp: 
    secs: 1526152764
    nsecs: 438840644
  frame_id: ''
point: 
  x: -489.751434326
  y: -626.730773926
  z: 143.308563232
---
header: 
  seq: 1780
  stamp: 
    secs: 1526152764
    nsecs: 505897513
  frame_id: ''
point: 
  x: -488.819519043
  y: -629.663085938
  z: 140.280105591
---
header: 
  seq: 1781
  stamp: 
    secs: 1526152764
    nsecs: 572553791
  frame_id: ''
point: 
  x: -489.120605469
  y: -628.963684082
  z: 140.91545105
---
header: 
  seq: 1782
  stamp: 
    secs: 1526152764
    nsecs: 638848999
  frame_id: ''
point: 
  x: -489.438079834
  y: -628.288757324
  z: 141.580810547
---
header: 
  seq: 1783
  stamp: 
    secs: 1526152764
    nsecs: 705888565
  frame_id: ''
point: 
  x: -489.751220703
  y: -626.960449219
  z: 142.6824646
---
header: 
  seq: 1784
  stamp: 
    secs: 1526152764
    nsecs: 772536703
  frame_id: ''
point: 
  x: -491.052032471
  y: -624.532531738
  z: 145.466461182
---
header: 
  seq: 1785
  stamp: 
    secs: 1526152764
    nsecs: 839269487
  frame_id: ''
point: 
  x: -492.362335205
  y: -621.441833496
  z: 148.662475586
---
header: 
  seq: 1786
  stamp: 
    secs: 1526152764
    nsecs: 905904960
  frame_id: ''
point: 
  x: -492.971954346
  y: -620.601196289
  z: 149.719100952
---
header: 
  seq: 1787
  stamp: 
    secs: 1526152764
    nsecs: 972526866
  frame_id: ''
point: 
  x: -492.914703369
  y: -620.411865234
  z: 149.687316895
---
header: 
  seq: 1788
  stamp: 
    secs: 1526152765
    nsecs:  38916475
  frame_id: ''
point: 
  x: -491.627105713
  y: -623.855041504
  z: 146.173171997
---
header: 
  seq: 1789
  stamp: 
    secs: 1526152765
    nsecs: 105923840
  frame_id: ''
point: 
  x: -491.714355469
  y: -624.270996094
  z: 145.977966309
---
header: 
  seq: 1790
  stamp: 
    secs: 1526152765
    nsecs: 172502682
  frame_id: ''
point: 
  x: -491.838684082
  y: -624.605651855
  z: 145.824234009
---
header: 
  seq: 1791
  stamp: 
    secs: 1526152765
    nsecs: 239230599
  frame_id: ''
point: 
  x: -491.989990234
  y: -624.869628906
  z: 145.706207275
---
header: 
  seq: 1792
  stamp: 
    secs: 1526152765
    nsecs: 305934723
  frame_id: ''
point: 
  x: -491.112030029
  y: -627.046569824
  z: 143.453414917
---
header: 
  seq: 1793
  stamp: 
    secs: 1526152765
    nsecs: 372540811
  frame_id: ''
point: 
  x: -489.994262695
  y: -629.704589844
  z: 140.608444214
---
header: 
  seq: 1794
  stamp: 
    secs: 1526152765
    nsecs: 438903521
  frame_id: ''
point: 
  x: -490.379852295
  y: -628.459777832
  z: 141.781051636
---
header: 
  seq: 1795
  stamp: 
    secs: 1526152765
    nsecs: 505927848
  frame_id: ''
point: 
  x: -490.343719482
  y: -628.18182373
  z: 141.87928772
---
header: 
  seq: 1796
  stamp: 
    secs: 1526152765
    nsecs: 572539506
  frame_id: ''
point: 
  x: -489.894439697
  y: -629.678649902
  z: 140.362930298
---
header: 
  seq: 1797
  stamp: 
    secs: 1526152765
    nsecs: 638859421
  frame_id: ''
point: 
  x: -489.536712646
  y: -631.273803711
  z: 138.639465332
---
header: 
  seq: 1798
  stamp: 
    secs: 1526152765
    nsecs: 705874781
  frame_id: ''
point: 
  x: -489.671386719
  y: -631.407409668
  z: 138.375854492
---
header: 
  seq: 1799
  stamp: 
    secs: 1526152765
    nsecs: 772540994
  frame_id: ''
point: 
  x: -489.8230896
  y: -631.461853027
  z: 138.211166382
---
header: 
  seq: 1800
  stamp: 
    secs: 1526152765
    nsecs: 839234645
  frame_id: ''
point: 
  x: -489.984924316
  y: -631.451965332
  z: 138.128631592
---
header: 
  seq: 1801
  stamp: 
    secs: 1526152765
    nsecs: 905879346
  frame_id: ''
point: 
  x: -490.936737061
  y: -629.095703125
  z: 140.369522095
---
header: 
  seq: 1802
  stamp: 
    secs: 1526152765
    nsecs: 972517965
  frame_id: ''
point: 
  x: -490.58102417
  y: -630.519287109
  z: 138.90977478
---
header: 
  seq: 1803
  stamp: 
    secs: 1526152766
    nsecs:  38900625
  frame_id: ''
point: 
  x: -491.152526855
  y: -629.824035645
  z: 139.784790039
---
header: 
  seq: 1804
  stamp: 
    secs: 1526152766
    nsecs: 105881036
  frame_id: ''
point: 
  x: -490.850402832
  y: -630.715576172
  z: 138.899047852
---
header: 
  seq: 1805
  stamp: 
    secs: 1526152766
    nsecs: 172618439
  frame_id: ''
point: 
  x: -492.266937256
  y: -627.341491699
  z: 142.406356812
---
header: 
  seq: 1806
  stamp: 
    secs: 1526152766
    nsecs: 238982433
  frame_id: ''
point: 
  x: -492.818267822
  y: -626.572814941
  z: 143.404586792
---
header: 
  seq: 1807
  stamp: 
    secs: 1526152766
    nsecs: 305910082
  frame_id: ''
point: 
  x: -493.279785156
  y: -625.923583984
  z: 144.247650146
---
header: 
  seq: 1808
  stamp: 
    secs: 1526152766
    nsecs: 372542324
  frame_id: ''
point: 
  x: -493.660217285
  y: -625.382507324
  z: 144.950637817
---
header: 
  seq: 1809
  stamp: 
    secs: 1526152766
    nsecs: 438761275
  frame_id: ''
point: 
  x: -493.758270264
  y: -625.419433594
  z: 144.954071045
---
header: 
  seq: 1810
  stamp: 
    secs: 1526152766
    nsecs: 505878027
  frame_id: ''
point: 
  x: -493.824951172
  y: -625.467041016
  z: 144.936477661
---


